<?xml version="1.0" encoding="utf-8"?>
<Race>
    <CreationTimeDate>2015-08-29T13:12:40+02:00</CreationTimeDate>
    <RaceStartTime Start="2015-08-29T13:10:00+02:00" Postpone="False" />
    <RaceID>242424</RaceID>
    <RaceType>Fleet</RaceType>
    <Participants>
    </Participants>
    <Course>
        <CompoundMark CompoundMarkID="1" Name="Start">
            <Mark SeqID="1" Name="Start Line 1" TargetLat="55.654449" TargetLng="12.963015" SourceID="122" />
            <Mark SeqID="2" Name="Start Line 2" TargetLat="55.651441" TargetLng="12.962710" SourceID="123" />
        </CompoundMark>
        <CompoundMark CompoundMarkID="2" Name="Mark1">
            <Mark SeqID="1" Name="Mark1" TargetLat="55.648152" TargetLng="12.994074" SourceID="131" />
        </CompoundMark>
        <CompoundMark CompoundMarkID="3" Name="Leeward Gate">
            <Mark SeqID="1" Name="Lee Gate 1" TargetLat="55.641694" TargetLng="12.966069" SourceID="124" />
            <Mark SeqID="2" Name="Lee Gate 2" TargetLat="55.641694" TargetLng="12.966069" SourceID="125" />
        </CompoundMark>
        <CompoundMark CompoundMarkID="4" Name="Windward Gate">
            <Mark SeqID="1" Name="Wind Gate 1" TargetLat="55.651950" TargetLng="13.020285" SourceID="126" />
            <Mark SeqID="2" Name="Wind Gate 2" TargetLat="55.651950" TargetLng="13.020285" SourceID="127" />
        </CompoundMark>
        <CompoundMark CompoundMarkID="5" Name="Finish">
            <Mark SeqID="1" Name="Finish Line 1" TargetLat="55.653560" TargetLng="13.030103" SourceID="128" />
            <Mark SeqID="2" Name="Finish Line 2" TargetLat="55.651090" TargetLng="13.030280" SourceID="129" />
        </CompoundMark>
    </Course>
    <CompoundMarkSequence>
        <Corner SeqID="1" CompoundMarkID="1" Rounding="PS" ZoneSize="3" />
        <Corner SeqID="2" CompoundMarkID="2" Rounding="Port" ZoneSize="3" />
        <Corner SeqID="3" CompoundMarkID="3" Rounding="SP" ZoneSize="3" />
        <Corner SeqID="4" CompoundMarkID="4" Rounding="PS" ZoneSize="3" />
        <Corner SeqID="5" CompoundMarkID="3" Rounding="SP" ZoneSize="3" />
        <Corner SeqID="6" CompoundMarkID="4" Rounding="PS" ZoneSize="3" />
        <Corner SeqID="7" CompoundMarkID="3" Rounding="SP" ZoneSize="3" />
        <Corner SeqID="8" CompoundMarkID="4" Rounding="PS" ZoneSize="3" />
        <Corner SeqID="9" CompoundMarkID="3" Rounding="SP" ZoneSize="3" />
        <Corner SeqID="10" CompoundMarkID="4" Rounding="PS" ZoneSize="3" />
        <Corner SeqID="11" CompoundMarkID="5" Rounding="PS" ZoneSize="3" />
    </CompoundMarkSequence>
    <CourseLimit>
        <Limit SeqID="1" Lat="55.660055" Lon="13.016926" />
        <Limit SeqID="2" Lat="55.655424" Lon="12.955487" />
        <Limit SeqID="3" Lat="55.639604" Lon="12.961495" />
        <Limit SeqID="4" Lat="55.640984" Lon="12.983867" />
        <Limit SeqID="5" Lat="55.644168" Lon="13.004523" />
        <Limit SeqID="6" Lat="55.649634" Lon="13.033192" />
        <Limit SeqID="6" Lat="55.649501" Lon="13.039920" />
        <Limit SeqID="6" Lat="55.652152" Lon="13.041855" />
    </CourseLimit>
</Race>